$GPGGA,090000.00,3606.89642675,N,12927.36564668,E,1,05,2.87,160.00,M,-21.3213,M,,*74
$GPGGA,090000.05,3606.89642675,N,12927.36564668,E,1,05,2.87,160.00,M,-21.3213,M,,*71
$GPGGA,090000.10,3606.89642675,N,12927.36564668,E,1,05,2.87,160.00,M,-21.3213,M,,*75
$GPGGA,090000.15,3606.89642675,N,12927.36564668,E,1,05,2.87,160.00,M,-21.3213,M,,*70
$GPGGA,090000.20,3606.89642675,N,12927.36564668,E,1,05,2.87,160.00,M,-21.3213,M,,*76
$GPGGA,090000.25,3606.89642675,N,12927.36564668,E,1,05,2.87,160.00,M,-21.3213,M,,*73
$GPGGA,090000.30,3606.89642675,N,12927.36564668,E,1,05,2.87,160.00,M,-21.3213,M,,*77
$GPGGA,090000.35,3606.89642675,N,12927.36564668,E,1,05,2.87,160.00,M,-21.3213,M,,*72
$GPGGA,090000.40,3606.89642675,N,12927.36564668,E,1,05,2.87,160.00,M,-21.3213,M,,*70
$GPGGA,090000.45,3606.89642675,N,12927.36564668,E,1,05,2.87,160.00,M,-21.3213,M,,*75
$GPGGA,090000.50,3606.89642675,N,12927.36564668,E,1,05,2.87,160.00,M,-21.3213,M,,*71
$GPGGA,090000.55,3606.89642675,N,12927.36564668,E,1,05,2.87,160.00,M,-21.3213,M,,*74
$GPGGA,090000.60,3606.89642675,N,12927.36564668,E,1,05,2.87,160.00,M,-21.3213,M,,*72
$GPGGA,090000.65,3606.89642675,N,12927.36564668,E,1,05,2.87,160.00,M,-21.3213,M,,*77
$GPGGA,090000.70,3606.89642675,N,12927.36564668,E,1,05,2.87,160.00,M,-21.3213,M,,*73
$GPGGA,090000.75,3606.89642675,N,12927.36564668,E,1,05,2.87,160.00,M,-21.3213,M,,*76
$GPGGA,090000.80,3606.89642675,N,12927.36564668,E,1,05,2.87,160.00,M,-21.3213,M,,*7C
$GPGGA,090000.85,3606.89642675,N,12927.36564668,E,1,05,2.87,160.00,M,-21.3213,M,,*79
$GPGGA,090000.90,3606.89642675,N,12927.36564668,E,1,05,2.87,160.00,M,-21.3213,M,,*7D
$GPGGA,090000.95,3606.89642675,N,12927.36564668,E,1,05,2.87,160.00,M,-21.3213,M,,*78
$GPGGA,090001.00,3606.89642675,N,12927.36564668,E,1,05,2.87,160.00,M,-21.3213,M,,*75
$GPGGA,090001.05,3606.89642675,N,12927.36564668,E,1,05,2.87,160.00,M,-21.3213,M,,*70
$GPGGA,090001.10,3606.89642675,N,12927.36564668,E,1,05,2.87,160.00,M,-21.3213,M,,*74
$GPGGA,090001.15,3606.89642675,N,12927.36564668,E,1,05,2.87,160.00,M,-21.3213,M,,*71
$GPGGA,090001.20,3606.89642675,N,12927.36564668,E,1,05,2.87,160.00,M,-21.3213,M,,*77
$GPGGA,090001.25,3606.89642675,N,12927.36564668,E,1,05,2.87,160.00,M,-21.3213,M,,*72
$GPGGA,090001.30,3606.89642675,N,12927.36564668,E,1,05,2.87,160.00,M,-21.3213,M,,*76
$GPGGA,090001.35,3606.89642675,N,12927.36564668,E,1,05,2.87,160.00,M,-21.3213,M,,*73
$GPGGA,090001.40,3606.89642675,N,12927.36564668,E,1,05,2.87,160.00,M,-21.3213,M,,*71
$GPGGA,090001.45,3606.89642675,N,12927.36564668,E,1,05,2.87,160.00,M,-21.3213,M,,*74
$GPGGA,090001.50,3606.89642675,N,12927.36564668,E,1,05,2.87,160.00,M,-21.3213,M,,*70
$GPGGA,090001.55,3606.89642675,N,12927.36564668,E,1,05,2.87,160.00,M,-21.3213,M,,*75
$GPGGA,090001.60,3606.89642675,N,12927.36564668,E,1,05,2.87,160.00,M,-21.3213,M,,*73
$GPGGA,090001.65,3606.89642675,N,12927.36564668,E,1,05,2.87,160.00,M,-21.3213,M,,*76
$GPGGA,090001.70,3606.89642675,N,12927.36564668,E,1,05,2.87,160.00,M,-21.3213,M,,*72
$GPGGA,090001.75,3606.89642675,N,12927.36564668,E,1,05,2.87,160.00,M,-21.3213,M,,*77
$GPGGA,090001.80,3606.89642675,N,12927.36564668,E,1,05,2.87,160.00,M,-21.3213,M,,*7D
$GPGGA,090001.85,3606.89642675,N,12927.36564668,E,1,05,2.87,160.00,M,-21.3213,M,,*78
$GPGGA,090001.90,3606.89642675,N,12927.36564668,E,1,05,2.87,160.00,M,-21.3213,M,,*7C
$GPGGA,090001.95,3606.89642675,N,12927.36564668,E,1,05,2.87,160.00,M,-21.3213,M,,*79
$GPGGA,090002.00,3606.89642675,N,12927.36564668,E,1,05,2.87,160.00,M,-21.3213,M,,*76
$GPGGA,090002.05,3606.89642675,N,12927.36564668,E,1,05,2.87,160.00,M,-21.3213,M,,*73
$GPGGA,090002.10,3606.89642675,N,12927.36564668,E,1,05,2.87,160.00,M,-21.3213,M,,*77
$GPGGA,090002.15,3606.89642675,N,12927.36564668,E,1,05,2.87,160.00,M,-21.3213,M,,*72
$GPGGA,090002.20,3606.89642675,N,12927.36564668,E,1,05,2.87,160.00,M,-21.3213,M,,*74
$GPGGA,090002.25,3606.89642675,N,12927.36564668,E,1,05,2.87,160.00,M,-21.3213,M,,*71
$GPGGA,090002.30,3606.89642675,N,12927.36564668,E,1,05,2.87,160.00,M,-21.3213,M,,*75
$GPGGA,090002.35,3606.89642675,N,12927.36564668,E,1,05,2.87,160.00,M,-21.3213,M,,*70
$GPGGA,090002.40,3606.89642675,N,12927.36564668,E,1,05,2.87,160.00,M,-21.3213,M,,*72
$GPGGA,090002.45,3606.89642675,N,12927.36564668,E,1,05,2.87,160.00,M,-21.3213,M,,*77
$GPGGA,090002.50,3606.89642675,N,12927.36564668,E,1,05,2.87,160.00,M,-21.3213,M,,*73
$GPGGA,090002.55,3606.89642675,N,12927.36564668,E,1,05,2.87,160.00,M,-21.3213,M,,*76
$GPGGA,090002.60,3606.89642675,N,12927.36564668,E,1,05,2.87,160.00,M,-21.3213,M,,*70
$GPGGA,090002.65,3606.89642675,N,12927.36564668,E,1,05,2.87,160.00,M,-21.3213,M,,*75
$GPGGA,090002.70,3606.89642675,N,12927.36564668,E,1,05,2.87,160.00,M,-21.3213,M,,*71
$GPGGA,090002.75,3606.89642675,N,12927.36564668,E,1,05,2.87,160.00,M,-21.3213,M,,*74
$GPGGA,090002.80,3606.89642675,N,12927.36564668,E,1,05,2.87,160.00,M,-21.3213,M,,*7E
$GPGGA,090002.85,3606.89642675,N,12927.36564668,E,1,05,2.87,160.00,M,-21.3213,M,,*7B
$GPGGA,090002.90,3606.89642675,N,12927.36564668,E,1,05,2.87,160.00,M,-21.3213,M,,*7F
$GPGGA,090002.95,3606.89642675,N,12927.36564668,E,1,05,2.87,160.00,M,-21.3213,M,,*7A
$GPGGA,090003.00,3606.89642675,N,12927.36564668,E,1,05,2.87,160.00,M,-21.3213,M,,*77
$GPGGA,090003.05,3606.89642675,N,12927.36564668,E,1,05,2.87,160.00,M,-21.3213,M,,*72
$GPGGA,090003.10,3606.89642675,N,12927.36564668,E,1,05,2.87,160.00,M,-21.3213,M,,*76
$GPGGA,090003.15,3606.89642675,N,12927.36564668,E,1,05,2.87,160.00,M,-21.3213,M,,*73
$GPGGA,090003.20,3606.89642675,N,12927.36564668,E,1,05,2.87,160.00,M,-21.3213,M,,*75
$GPGGA,090003.25,3606.89642675,N,12927.36564668,E,1,05,2.87,160.00,M,-21.3213,M,,*70
$GPGGA,090003.30,3606.89642675,N,12927.36564668,E,1,05,2.87,160.00,M,-21.3213,M,,*74
$GPGGA,090003.35,3606.89642675,N,12927.36564668,E,1,05,2.87,160.00,M,-21.3213,M,,*71
$GPGGA,090003.40,3606.89642675,N,12927.36564668,E,1,05,2.87,160.00,M,-21.3213,M,,*73
$GPGGA,090003.45,3606.89642675,N,12927.36564668,E,1,05,2.87,160.00,M,-21.3213,M,,*76
$GPGGA,090003.50,3606.89642675,N,12927.36564668,E,1,05,2.87,160.00,M,-21.3213,M,,*72
$GPGGA,090003.55,3606.89642675,N,12927.36564668,E,1,05,2.87,160.00,M,-21.3213,M,,*77
$GPGGA,090003.60,3606.89642675,N,12927.36564668,E,1,05,2.87,160.00,M,-21.3213,M,,*71
$GPGGA,090003.65,3606.89642675,N,12927.36564668,E,1,05,2.87,160.00,M,-21.3213,M,,*74
$GPGGA,090003.70,3606.89642675,N,12927.36564668,E,1,05,2.87,160.00,M,-21.3213,M,,*70
$GPGGA,090003.75,3606.89642675,N,12927.36564668,E,1,05,2.87,160.00,M,-21.3213,M,,*75
$GPGGA,090003.80,3606.89642675,N,12927.36564668,E,1,05,2.87,160.00,M,-21.3213,M,,*7F
$GPGGA,090003.85,3606.89642675,N,12927.36564668,E,1,05,2.87,160.00,M,-21.3213,M,,*7A
$GPGGA,090003.90,3606.89642675,N,12927.36564668,E,1,05,2.87,160.00,M,-21.3213,M,,*7E
$GPGGA,090003.95,3606.89642675,N,12927.36564668,E,1,05,2.87,160.00,M,-21.3213,M,,*7B
$GPGGA,090004.00,3606.89642675,N,12927.36564668,E,1,05,2.87,160.00,M,-21.3213,M,,*70
$GPGGA,090004.05,3606.89642675,N,12927.36564668,E,1,05,2.87,160.00,M,-21.3213,M,,*75
$GPGGA,090004.10,3606.89642675,N,12927.36564668,E,1,05,2.87,160.00,M,-21.3213,M,,*71
$GPGGA,090004.15,3606.89642675,N,12927.36564668,E,1,05,2.87,160.00,M,-21.3213,M,,*74
$GPGGA,090004.20,3606.89642675,N,12927.36564668,E,1,05,2.87,160.00,M,-21.3213,M,,*72
$GPGGA,090004.25,3606.89642675,N,12927.36564668,E,1,05,2.87,160.00,M,-21.3213,M,,*77
$GPGGA,090004.30,3606.89642675,N,12927.36564668,E,1,05,2.87,160.00,M,-21.3213,M,,*73
$GPGGA,090004.35,3606.89642675,N,12927.36564668,E,1,05,2.87,160.00,M,-21.3213,M,,*76
$GPGGA,090004.40,3606.89642675,N,12927.36564668,E,1,05,2.87,160.00,M,-21.3213,M,,*74
$GPGGA,090004.45,3606.89642675,N,12927.36564668,E,1,05,2.87,160.00,M,-21.3213,M,,*71
$GPGGA,090004.50,3606.89642675,N,12927.36564668,E,1,05,2.87,160.00,M,-21.3213,M,,*75
$GPGGA,090004.55,3606.89642675,N,12927.36564668,E,1,05,2.87,160.00,M,-21.3213,M,,*70
$GPGGA,090004.60,3606.89642675,N,12927.36564668,E,1,05,2.87,160.00,M,-21.3213,M,,*76
$GPGGA,090004.65,3606.89642675,N,12927.36564668,E,1,05,2.87,160.00,M,-21.3213,M,,*73
$GPGGA,090004.70,3606.89642675,N,12927.36564668,E,1,05,2.87,160.00,M,-21.3213,M,,*77
$GPGGA,090004.75,3606.89642675,N,12927.36564668,E,1,05,2.87,160.00,M,-21.3213,M,,*72
$GPGGA,090004.80,3606.89642675,N,12927.36564668,E,1,05,2.87,160.00,M,-21.3213,M,,*78
$GPGGA,090004.85,3606.89642675,N,12927.36564668,E,1,05,2.87,160.00,M,-21.3213,M,,*7D
$GPGGA,090004.90,3606.89642675,N,12927.36564668,E,1,05,2.87,160.00,M,-21.3213,M,,*79
$GPGGA,090004.95,3606.89642675,N,12927.36564668,E,1,05,2.87,160.00,M,-21.3213,M,,*7C
$GPGGA,090005.00,3606.89642675,N,12927.36564668,E,1,05,2.87,160.00,M,-21.3213,M,,*71
$GPGGA,090005.05,3606.89642675,N,12927.36564668,E,1,05,2.87,160.00,M,-21.3213,M,,*74
$GPGGA,090005.10,3606.89642675,N,12927.36564668,E,1,05,2.87,160.00,M,-21.3213,M,,*70
$GPGGA,090005.15,3606.89642675,N,12927.36564668,E,1,05,2.87,160.00,M,-21.3213,M,,*75
$GPGGA,090005.20,3606.89642675,N,12927.36564668,E,1,05,2.87,160.00,M,-21.3213,M,,*73
$GPGGA,090005.25,3606.89642675,N,12927.36564668,E,1,05,2.87,160.00,M,-21.3213,M,,*76
$GPGGA,090005.30,3606.89642675,N,12927.36564668,E,1,05,2.87,160.00,M,-21.3213,M,,*72
$GPGGA,090005.35,3606.89642675,N,12927.36564668,E,1,05,2.87,160.00,M,-21.3213,M,,*77
$GPGGA,090005.40,3606.89642675,N,12927.36564668,E,1,05,2.87,160.00,M,-21.3213,M,,*75
$GPGGA,090005.45,3606.89642675,N,12927.36564668,E,1,05,2.87,160.00,M,-21.3213,M,,*70
$GPGGA,090005.50,3606.89642675,N,12927.36564668,E,1,05,2.87,160.00,M,-21.3213,M,,*74
$GPGGA,090005.55,3606.89642675,N,12927.36564668,E,1,05,2.87,160.00,M,-21.3213,M,,*71
$GPGGA,090005.60,3606.89642675,N,12927.36564668,E,1,05,2.87,160.00,M,-21.3213,M,,*77
$GPGGA,090005.65,3606.89642675,N,12927.36564668,E,1,05,2.87,160.00,M,-21.3213,M,,*72
$GPGGA,090005.70,3606.89642675,N,12927.36564668,E,1,05,2.87,160.00,M,-21.3213,M,,*76
$GPGGA,090005.75,3606.89642675,N,12927.36564668,E,1,05,2.87,160.00,M,-21.3213,M,,*73
$GPGGA,090005.80,3606.89642675,N,12927.36564668,E,1,05,2.87,160.00,M,-21.3213,M,,*79
$GPGGA,090005.85,3606.89642675,N,12927.36564668,E,1,05,2.87,160.00,M,-21.3213,M,,*7C
$GPGGA,090005.90,3606.89642675,N,12927.36564668,E,1,05,2.87,160.00,M,-21.3213,M,,*78
$GPGGA,090005.95,3606.89642675,N,12927.36564668,E,1,05,2.87,160.00,M,-21.3213,M,,*7D
$GPGGA,090006.00,3606.89642675,N,12927.36564668,E,1,05,2.87,160.00,M,-21.3213,M,,*72
$GPGGA,090006.05,3606.89642675,N,12927.36564668,E,1,05,2.87,160.00,M,-21.3213,M,,*77
$GPGGA,090006.10,3606.89642675,N,12927.36564668,E,1,05,2.87,160.00,M,-21.3213,M,,*73
$GPGGA,090006.15,3606.89642675,N,12927.36564668,E,1,05,2.87,160.00,M,-21.3213,M,,*76
$GPGGA,090006.20,3606.89642675,N,12927.36564668,E,1,05,2.87,160.00,M,-21.3213,M,,*70
$GPGGA,090006.25,3606.89642675,N,12927.36564668,E,1,05,2.87,160.00,M,-21.3213,M,,*75
$GPGGA,090006.30,3606.89642675,N,12927.36564668,E,1,05,2.87,160.00,M,-21.3213,M,,*71
$GPGGA,090006.35,3606.89642675,N,12927.36564668,E,1,05,2.87,160.00,M,-21.3213,M,,*74
$GPGGA,090006.40,3606.89642675,N,12927.36564668,E,1,05,2.87,160.00,M,-21.3213,M,,*76
$GPGGA,090006.45,3606.89642675,N,12927.36564668,E,1,05,2.87,160.00,M,-21.3213,M,,*73
$GPGGA,090006.50,3606.89642675,N,12927.36564668,E,1,05,2.87,160.00,M,-21.3213,M,,*77
$GPGGA,090006.55,3606.89642675,N,12927.36564668,E,1,05,2.87,160.00,M,-21.3213,M,,*72
$GPGGA,090006.60,3606.89642675,N,12927.36564668,E,1,05,2.87,160.00,M,-21.3213,M,,*74
$GPGGA,090006.65,3606.89642675,N,12927.36564668,E,1,05,2.87,160.00,M,-21.3213,M,,*71
$GPGGA,090006.70,3606.89642675,N,12927.36564668,E,1,05,2.87,160.00,M,-21.3213,M,,*75
$GPGGA,090006.75,3606.89642675,N,12927.36564668,E,1,05,2.87,160.00,M,-21.3213,M,,*70
$GPGGA,090006.80,3606.89642675,N,12927.36564668,E,1,05,2.87,160.00,M,-21.3213,M,,*7A
$GPGGA,090006.85,3606.89642675,N,12927.36564668,E,1,05,2.87,160.00,M,-21.3213,M,,*7F
$GPGGA,090006.90,3606.89642675,N,12927.36564668,E,1,05,2.87,160.00,M,-21.3213,M,,*7B
$GPGGA,090006.95,3606.89642675,N,12927.36564668,E,1,05,2.87,160.00,M,-21.3213,M,,*7E
$GPGGA,090007.00,3606.89642675,N,12927.36564668,E,1,05,2.87,160.00,M,-21.3213,M,,*73
$GPGGA,090007.05,3606.89642675,N,12927.36564668,E,1,05,2.87,160.00,M,-21.3213,M,,*76
$GPGGA,090007.10,3606.89642675,N,12927.36564668,E,1,05,2.87,160.00,M,-21.3213,M,,*72
$GPGGA,090007.15,3606.89642675,N,12927.36564668,E,1,05,2.87,160.00,M,-21.3213,M,,*77
$GPGGA,090007.20,3606.89642675,N,12927.36564668,E,1,05,2.87,160.00,M,-21.3213,M,,*71
$GPGGA,090007.25,3606.89642675,N,12927.36564668,E,1,05,2.87,160.00,M,-21.3213,M,,*74
$GPGGA,090007.30,3606.89642675,N,12927.36564668,E,1,05,2.87,160.00,M,-21.3213,M,,*70
$GPGGA,090007.35,3606.89642675,N,12927.36564668,E,1,05,2.87,160.00,M,-21.3213,M,,*75
$GPGGA,090007.40,3606.89642675,N,12927.36564668,E,1,05,2.87,160.00,M,-21.3213,M,,*77
$GPGGA,090007.45,3606.89642675,N,12927.36564668,E,1,05,2.87,160.00,M,-21.3213,M,,*72
$GPGGA,090007.50,3606.89642675,N,12927.36564668,E,1,05,2.87,160.00,M,-21.3213,M,,*76
$GPGGA,090007.55,3606.89642675,N,12927.36564668,E,1,05,2.87,160.00,M,-21.3213,M,,*73
$GPGGA,090007.60,3606.89642675,N,12927.36564668,E,1,05,2.87,160.00,M,-21.3213,M,,*75
$GPGGA,090007.65,3606.89642675,N,12927.36564668,E,1,05,2.87,160.00,M,-21.3213,M,,*70
$GPGGA,090007.70,3606.89642675,N,12927.36564668,E,1,05,2.87,160.00,M,-21.3213,M,,*74
$GPGGA,090007.75,3606.89642675,N,12927.36564668,E,1,05,2.87,160.00,M,-21.3213,M,,*71
$GPGGA,090007.80,3606.89642675,N,12927.36564668,E,1,05,2.87,160.00,M,-21.3213,M,,*7B
$GPGGA,090007.85,3606.89642675,N,12927.36564668,E,1,05,2.87,160.00,M,-21.3213,M,,*7E
$GPGGA,090007.90,3606.89642675,N,12927.36564668,E,1,05,2.87,160.00,M,-21.3213,M,,*7A
$GPGGA,090007.95,3606.89642675,N,12927.36564668,E,1,05,2.87,160.00,M,-21.3213,M,,*7F
$GPGGA,090008.00,3606.89642675,N,12927.36564668,E,1,05,2.87,160.00,M,-21.3213,M,,*7C
$GPGGA,090008.05,3606.89642675,N,12927.36564668,E,1,05,2.87,160.00,M,-21.3213,M,,*79
$GPGGA,090008.10,3606.89642675,N,12927.36564668,E,1,05,2.87,160.00,M,-21.3213,M,,*7D
$GPGGA,090008.15,3606.89642675,N,12927.36564668,E,1,05,2.87,160.00,M,-21.3213,M,,*78
$GPGGA,090008.20,3606.89642675,N,12927.36564668,E,1,05,2.87,160.00,M,-21.3213,M,,*7E
$GPGGA,090008.25,3606.89642675,N,12927.36564668,E,1,05,2.87,160.00,M,-21.3213,M,,*7B
$GPGGA,090008.30,3606.89642675,N,12927.36564668,E,1,05,2.87,160.00,M,-21.3213,M,,*7F
$GPGGA,090008.35,3606.89642675,N,12927.36564668,E,1,05,2.87,160.00,M,-21.3213,M,,*7A
$GPGGA,090008.40,3606.89642675,N,12927.36564668,E,1,05,2.87,160.00,M,-21.3213,M,,*78
$GPGGA,090008.45,3606.89642675,N,12927.36564668,E,1,05,2.87,160.00,M,-21.3213,M,,*7D
$GPGGA,090008.50,3606.89642675,N,12927.36564668,E,1,05,2.87,160.00,M,-21.3213,M,,*79
$GPGGA,090008.55,3606.89642675,N,12927.36564668,E,1,05,2.87,160.00,M,-21.3213,M,,*7C
$GPGGA,090008.60,3606.89642675,N,12927.36564668,E,1,05,2.87,160.00,M,-21.3213,M,,*7A
$GPGGA,090008.65,3606.89642675,N,12927.36564668,E,1,05,2.87,160.00,M,-21.3213,M,,*7F
$GPGGA,090008.70,3606.89642675,N,12927.36564668,E,1,05,2.87,160.00,M,-21.3213,M,,*7B
$GPGGA,090008.75,3606.89642675,N,12927.36564668,E,1,05,2.87,160.00,M,-21.3213,M,,*7E
$GPGGA,090008.80,3606.89642675,N,12927.36564668,E,1,05,2.87,160.00,M,-21.3213,M,,*74
$GPGGA,090008.85,3606.89642675,N,12927.36564668,E,1,05,2.87,160.00,M,-21.3213,M,,*71
$GPGGA,090008.90,3606.89642675,N,12927.36564668,E,1,05,2.87,160.00,M,-21.3213,M,,*75
$GPGGA,090008.95,3606.89642675,N,12927.36564668,E,1,05,2.87,160.00,M,-21.3213,M,,*70
$GPGGA,090009.00,3606.89642675,N,12927.36564668,E,1,05,2.87,160.00,M,-21.3213,M,,*7D
$GPGGA,090009.05,3606.89642675,N,12927.36564668,E,1,05,2.87,160.00,M,-21.3213,M,,*78
$GPGGA,090009.10,3606.89642675,N,12927.36564668,E,1,05,2.87,160.00,M,-21.3213,M,,*7C
$GPGGA,090009.15,3606.89642675,N,12927.36564668,E,1,05,2.87,160.00,M,-21.3213,M,,*79
$GPGGA,090009.20,3606.89642675,N,12927.36564668,E,1,05,2.87,160.00,M,-21.3213,M,,*7F
$GPGGA,090009.25,3606.89642675,N,12927.36564668,E,1,05,2.87,160.00,M,-21.3213,M,,*7A
$GPGGA,090009.30,3606.89642675,N,12927.36564668,E,1,05,2.87,160.00,M,-21.3213,M,,*7E
$GPGGA,090009.35,3606.89642675,N,12927.36564668,E,1,05,2.87,160.00,M,-21.3213,M,,*7B
$GPGGA,090009.40,3606.89642675,N,12927.36564668,E,1,05,2.87,160.00,M,-21.3213,M,,*79
$GPGGA,090009.45,3606.89642675,N,12927.36564668,E,1,05,2.87,160.00,M,-21.3213,M,,*7C
$GPGGA,090009.50,3606.89642675,N,12927.36564668,E,1,05,2.87,160.00,M,-21.3213,M,,*78
$GPGGA,090009.55,3606.89642675,N,12927.36564668,E,1,05,2.87,160.00,M,-21.3213,M,,*7D
$GPGGA,090009.60,3606.89642675,N,12927.36564668,E,1,05,2.87,160.00,M,-21.3213,M,,*7B
$GPGGA,090009.65,3606.89642675,N,12927.36564668,E,1,05,2.87,160.00,M,-21.3213,M,,*7E
$GPGGA,090009.70,3606.89642675,N,12927.36564668,E,1,05,2.87,160.00,M,-21.3213,M,,*7A
$GPGGA,090009.75,3606.89642675,N,12927.36564668,E,1,05,2.87,160.00,M,-21.3213,M,,*7F
$GPGGA,090009.80,3606.89642675,N,12927.36564668,E,1,05,2.87,160.00,M,-21.3213,M,,*75
$GPGGA,090009.85,3606.89642675,N,12927.36564668,E,1,05,2.87,160.00,M,-21.3213,M,,*70
$GPGGA,090009.90,3606.89642675,N,12927.36564668,E,1,05,2.87,160.00,M,-21.3213,M,,*74
$GPGGA,090009.95,3606.89642675,N,12927.36564668,E,1,05,2.87,160.00,M,-21.3213,M,,*71
$GPGGA,090010.00,3606.89642675,N,12927.36564668,E,1,05,2.87,160.00,M,-21.3213,M,,*75
$GPGGA,090010.05,3606.89642675,N,12927.36564668,E,1,05,2.87,160.00,M,-21.3213,M,,*70
$GPGGA,090010.10,3606.89642675,N,12927.36564668,E,1,05,2.87,160.00,M,-21.3213,M,,*74
$GPGGA,090010.15,3606.89642675,N,12927.36564668,E,1,05,2.87,160.00,M,-21.3213,M,,*71
$GPGGA,090010.20,3606.89642675,N,12927.36564668,E,1,05,2.87,160.00,M,-21.3213,M,,*77
$GPGGA,090010.25,3606.89642675,N,12927.36564668,E,1,05,2.87,160.00,M,-21.3213,M,,*72
$GPGGA,090010.30,3606.89642675,N,12927.36564668,E,1,05,2.87,160.00,M,-21.3213,M,,*76
$GPGGA,090010.35,3606.89642675,N,12927.36564668,E,1,05,2.87,160.00,M,-21.3213,M,,*73
$GPGGA,090010.40,3606.89642675,N,12927.36564668,E,1,05,2.87,160.00,M,-21.3213,M,,*71
$GPGGA,090010.45,3606.89642675,N,12927.36564668,E,1,05,2.87,160.00,M,-21.3213,M,,*74
$GPGGA,090010.50,3606.89642675,N,12927.36564668,E,1,05,2.87,160.00,M,-21.3213,M,,*70
$GPGGA,090010.55,3606.89642675,N,12927.36564668,E,1,05,2.87,160.00,M,-21.3213,M,,*75
$GPGGA,090010.60,3606.89642675,N,12927.36564668,E,1,05,2.87,160.00,M,-21.3213,M,,*73
$GPGGA,090010.65,3606.89642675,N,12927.36564668,E,1,05,2.87,160.00,M,-21.3213,M,,*76
$GPGGA,090010.70,3606.89642675,N,12927.36564668,E,1,05,2.87,160.00,M,-21.3213,M,,*72
$GPGGA,090010.75,3606.89642675,N,12927.36564668,E,1,05,2.87,160.00,M,-21.3213,M,,*77
$GPGGA,090010.80,3606.89642675,N,12927.36564668,E,1,05,2.87,160.00,M,-21.3213,M,,*7D
$GPGGA,090010.85,3606.89642675,N,12927.36564668,E,1,05,2.87,160.00,M,-21.3213,M,,*78
$GPGGA,090010.90,3606.89642675,N,12927.36564668,E,1,05,2.87,160.00,M,-21.3213,M,,*7C
$GPGGA,090010.95,3606.89642675,N,12927.36564668,E,1,05,2.87,160.00,M,-21.3213,M,,*79
$GPGGA,090011.00,3606.89642675,N,12927.36564668,E,1,05,2.87,160.00,M,-21.3213,M,,*74
$GPGGA,090011.05,3606.89642675,N,12927.36564668,E,1,05,2.87,160.00,M,-21.3213,M,,*71
$GPGGA,090011.10,3606.89642675,N,12927.36564668,E,1,05,2.87,160.00,M,-21.3213,M,,*75
$GPGGA,090011.15,3606.89642675,N,12927.36564668,E,1,05,2.87,160.00,M,-21.3213,M,,*70
$GPGGA,090011.20,3606.89642675,N,12927.36564668,E,1,05,2.87,160.00,M,-21.3213,M,,*76
$GPGGA,090011.25,3606.89642675,N,12927.36564668,E,1,05,2.87,160.00,M,-21.3213,M,,*73
$GPGGA,090011.30,3606.89642675,N,12927.36564668,E,1,05,2.87,160.00,M,-21.3213,M,,*77
$GPGGA,090011.35,3606.89642675,N,12927.36564668,E,1,05,2.87,160.00,M,-21.3213,M,,*72
$GPGGA,090011.40,3606.89642675,N,12927.36564668,E,1,05,2.87,160.00,M,-21.3213,M,,*70
$GPGGA,090011.45,3606.89642675,N,12927.36564668,E,1,05,2.87,160.00,M,-21.3213,M,,*75
$GPGGA,090011.50,3606.89642675,N,12927.36564668,E,1,05,2.87,160.00,M,-21.3213,M,,*71
$GPGGA,090011.55,3606.89642675,N,12927.36564668,E,1,05,2.87,160.00,M,-21.3213,M,,*74
$GPGGA,090011.60,3606.89642675,N,12927.36564668,E,1,05,2.87,160.00,M,-21.3213,M,,*72
$GPGGA,090011.65,3606.89642675,N,12927.36564668,E,1,05,2.87,160.00,M,-21.3213,M,,*77
$GPGGA,090011.70,3606.89642675,N,12927.36564668,E,1,05,2.87,160.00,M,-21.3213,M,,*73
$GPGGA,090011.75,3606.89642675,N,12927.36564668,E,1,05,2.87,160.00,M,-21.3213,M,,*76
$GPGGA,090011.80,3606.89642675,N,12927.36564668,E,1,05,2.87,160.00,M,-21.3213,M,,*7C
$GPGGA,090011.85,3606.89642675,N,12927.36564668,E,1,05,2.87,160.00,M,-21.3213,M,,*79
$GPGGA,090011.90,3606.89642675,N,12927.36564668,E,1,05,2.87,160.00,M,-21.3213,M,,*7D
$GPGGA,090011.95,3606.89642675,N,12927.36564668,E,1,05,2.87,160.00,M,-21.3213,M,,*78
$GPGGA,090012.00,3606.89642675,N,12927.36564668,E,1,05,2.87,160.00,M,-21.3213,M,,*77
$GPGGA,090012.05,3606.89642675,N,12927.36564668,E,1,05,2.87,160.00,M,-21.3213,M,,*72
$GPGGA,090012.10,3606.89642675,N,12927.36564668,E,1,05,2.87,160.00,M,-21.3213,M,,*76
$GPGGA,090012.15,3606.89642675,N,12927.36564668,E,1,05,2.87,160.00,M,-21.3213,M,,*73
$GPGGA,090012.20,3606.89642675,N,12927.36564668,E,1,05,2.87,160.00,M,-21.3213,M,,*75
$GPGGA,090012.25,3606.89642675,N,12927.36564668,E,1,05,2.87,160.00,M,-21.3213,M,,*70
$GPGGA,090012.30,3606.89642675,N,12927.36564668,E,1,05,2.87,160.00,M,-21.3213,M,,*74
$GPGGA,090012.35,3606.89642675,N,12927.36564668,E,1,05,2.87,160.00,M,-21.3213,M,,*71
$GPGGA,090012.40,3606.89642675,N,12927.36564668,E,1,05,2.87,160.00,M,-21.3213,M,,*73
$GPGGA,090012.45,3606.89642675,N,12927.36564668,E,1,05,2.87,160.00,M,-21.3213,M,,*76
$GPGGA,090012.50,3606.89642675,N,12927.36564668,E,1,05,2.87,160.00,M,-21.3213,M,,*72
$GPGGA,090012.55,3606.89642675,N,12927.36564668,E,1,05,2.87,160.00,M,-21.3213,M,,*77
$GPGGA,090012.60,3606.89642675,N,12927.36564668,E,1,05,2.87,160.00,M,-21.3213,M,,*71
$GPGGA,090012.65,3606.89642675,N,12927.36564668,E,1,05,2.87,160.00,M,-21.3213,M,,*74
$GPGGA,090012.70,3606.89642675,N,12927.36564668,E,1,05,2.87,160.00,M,-21.3213,M,,*70
$GPGGA,090012.75,3606.89642675,N,12927.36564668,E,1,05,2.87,160.00,M,-21.3213,M,,*75
$GPGGA,090012.80,3606.89642675,N,12927.36564668,E,1,05,2.87,160.00,M,-21.3213,M,,*7F
$GPGGA,090012.85,3606.89642675,N,12927.36564668,E,1,05,2.87,160.00,M,-21.3213,M,,*7A
$GPGGA,090012.90,3606.89642675,N,12927.36564668,E,1,05,2.87,160.00,M,-21.3213,M,,*7E
$GPGGA,090012.95,3606.89642675,N,12927.36564668,E,1,05,2.87,160.00,M,-21.3213,M,,*7B
$GPGGA,090013.00,3606.89642675,N,12927.36564668,E,1,05,2.87,160.00,M,-21.3213,M,,*76
$GPGGA,090013.05,3606.89642675,N,12927.36564668,E,1,05,2.87,160.00,M,-21.3213,M,,*73
$GPGGA,090013.10,3606.89642675,N,12927.36564668,E,1,05,2.87,160.00,M,-21.3213,M,,*77
$GPGGA,090013.15,3606.89642675,N,12927.36564668,E,1,05,2.87,160.00,M,-21.3213,M,,*72
$GPGGA,090013.20,3606.89642675,N,12927.36564668,E,1,05,2.87,160.00,M,-21.3213,M,,*74
$GPGGA,090013.25,3606.89642675,N,12927.36564668,E,1,05,2.87,160.00,M,-21.3213,M,,*71
$GPGGA,090013.30,3606.89642675,N,12927.36564668,E,1,05,2.87,160.00,M,-21.3213,M,,*75
$GPGGA,090013.35,3606.89642675,N,12927.36564668,E,1,05,2.87,160.00,M,-21.3213,M,,*70
$GPGGA,090013.40,3606.89642675,N,12927.36564668,E,1,05,2.87,160.00,M,-21.3213,M,,*72
$GPGGA,090013.45,3606.89642675,N,12927.36564668,E,1,05,2.87,160.00,M,-21.3213,M,,*77
$GPGGA,090013.50,3606.89642675,N,12927.36564668,E,1,05,2.87,160.00,M,-21.3213,M,,*73
$GPGGA,090013.55,3606.89642675,N,12927.36564668,E,1,05,2.87,160.00,M,-21.3213,M,,*76
$GPGGA,090013.60,3606.89642675,N,12927.36564668,E,1,05,2.87,160.00,M,-21.3213,M,,*70
$GPGGA,090013.65,3606.89642675,N,12927.36564668,E,1,05,2.87,160.00,M,-21.3213,M,,*75
$GPGGA,090013.70,3606.89642675,N,12927.36564668,E,1,05,2.87,160.00,M,-21.3213,M,,*71
$GPGGA,090013.75,3606.89642675,N,12927.36564668,E,1,05,2.87,160.00,M,-21.3213,M,,*74
$GPGGA,090013.80,3606.89642675,N,12927.36564668,E,1,05,2.87,160.00,M,-21.3213,M,,*7E
$GPGGA,090013.85,3606.89642675,N,12927.36564668,E,1,05,2.87,160.00,M,-21.3213,M,,*7B
$GPGGA,090013.90,3606.89642675,N,12927.36564668,E,1,05,2.87,160.00,M,-21.3213,M,,*7F
$GPGGA,090013.95,3606.89642675,N,12927.36564668,E,1,05,2.87,160.00,M,-21.3213,M,,*7A
$GPGGA,090014.00,3606.89642675,N,12927.36564668,E,1,05,2.87,160.00,M,-21.3213,M,,*71
$GPGGA,090014.05,3606.89642675,N,12927.36564668,E,1,05,2.87,160.00,M,-21.3213,M,,*74
$GPGGA,090014.10,3606.89642675,N,12927.36564668,E,1,05,2.87,160.00,M,-21.3213,M,,*70
$GPGGA,090014.15,3606.89642675,N,12927.36564668,E,1,05,2.87,160.00,M,-21.3213,M,,*75
$GPGGA,090014.20,3606.89642675,N,12927.36564668,E,1,05,2.87,160.00,M,-21.3213,M,,*73
$GPGGA,090014.25,3606.89642675,N,12927.36564668,E,1,05,2.87,160.00,M,-21.3213,M,,*76
$GPGGA,090014.30,3606.89642675,N,12927.36564668,E,1,05,2.87,160.00,M,-21.3213,M,,*72
$GPGGA,090014.35,3606.89642675,N,12927.36564668,E,1,05,2.87,160.00,M,-21.3213,M,,*77
$GPGGA,090014.40,3606.89642675,N,12927.36564668,E,1,05,2.87,160.00,M,-21.3213,M,,*75
$GPGGA,090014.45,3606.89642675,N,12927.36564668,E,1,05,2.87,160.00,M,-21.3213,M,,*70
$GPGGA,090014.50,3606.89642675,N,12927.36564668,E,1,05,2.87,160.00,M,-21.3213,M,,*74
$GPGGA,090014.55,3606.89642675,N,12927.36564668,E,1,05,2.87,160.00,M,-21.3213,M,,*71
$GPGGA,090014.60,3606.89642675,N,12927.36564668,E,1,05,2.87,160.00,M,-21.3213,M,,*77
$GPGGA,090014.65,3606.89642675,N,12927.36564668,E,1,05,2.87,160.00,M,-21.3213,M,,*72
$GPGGA,090014.70,3606.89642675,N,12927.36564668,E,1,05,2.87,160.00,M,-21.3213,M,,*76
$GPGGA,090014.75,3606.89642675,N,12927.36564668,E,1,05,2.87,160.00,M,-21.3213,M,,*73
$GPGGA,090014.80,3606.89642675,N,12927.36564668,E,1,05,2.87,160.00,M,-21.3213,M,,*79
$GPGGA,090014.85,3606.89642675,N,12927.36564668,E,1,05,2.87,160.00,M,-21.3213,M,,*7C
$GPGGA,090014.90,3606.89642675,N,12927.36564668,E,1,05,2.87,160.00,M,-21.3213,M,,*78
$GPGGA,090014.95,3606.89642675,N,12927.36564668,E,1,05,2.87,160.00,M,-21.3213,M,,*7D
$GPGGA,090015.00,3606.89642675,N,12927.36564668,E,1,05,2.87,160.00,M,-21.3213,M,,*70
$GPGGA,090015.05,3606.89642675,N,12927.36564668,E,1,05,2.87,160.00,M,-21.3213,M,,*75
$GPGGA,090015.10,3606.89642675,N,12927.36564668,E,1,05,2.87,160.00,M,-21.3213,M,,*71
$GPGGA,090015.15,3606.89642675,N,12927.36564668,E,1,05,2.87,160.00,M,-21.3213,M,,*74
$GPGGA,090015.20,3606.89642675,N,12927.36564668,E,1,05,2.87,160.00,M,-21.3213,M,,*72
$GPGGA,090015.25,3606.89642675,N,12927.36564668,E,1,05,2.87,160.00,M,-21.3213,M,,*77
$GPGGA,090015.30,3606.89642675,N,12927.36564668,E,1,05,2.87,160.00,M,-21.3213,M,,*73
$GPGGA,090015.35,3606.89642675,N,12927.36564668,E,1,05,2.87,160.00,M,-21.3213,M,,*76
$GPGGA,090015.40,3606.89642675,N,12927.36564668,E,1,05,2.87,160.00,M,-21.3213,M,,*74
$GPGGA,090015.45,3606.89642675,N,12927.36564668,E,1,05,2.87,160.00,M,-21.3213,M,,*71
$GPGGA,090015.50,3606.89642675,N,12927.36564668,E,1,05,2.87,160.00,M,-21.3213,M,,*75
$GPGGA,090015.55,3606.89642675,N,12927.36564668,E,1,05,2.87,160.00,M,-21.3213,M,,*70
$GPGGA,090015.60,3606.89642675,N,12927.36564668,E,1,05,2.87,160.00,M,-21.3213,M,,*76
$GPGGA,090015.65,3606.89642675,N,12927.36564668,E,1,05,2.87,160.00,M,-21.3213,M,,*73
$GPGGA,090015.70,3606.89642675,N,12927.36564668,E,1,05,2.87,160.00,M,-21.3213,M,,*77
$GPGGA,090015.75,3606.89642675,N,12927.36564668,E,1,05,2.87,160.00,M,-21.3213,M,,*72
$GPGGA,090015.80,3606.89642675,N,12927.36564668,E,1,05,2.87,160.00,M,-21.3213,M,,*78
$GPGGA,090015.85,3606.89642675,N,12927.36564668,E,1,05,2.87,160.00,M,-21.3213,M,,*7D
$GPGGA,090015.90,3606.89642675,N,12927.36564668,E,1,05,2.87,160.00,M,-21.3213,M,,*79
$GPGGA,090015.95,3606.89642675,N,12927.36564668,E,1,05,2.87,160.00,M,-21.3213,M,,*7C
$GPGGA,090016.00,3606.89642675,N,12927.36564668,E,1,05,2.87,160.00,M,-21.3213,M,,*73
$GPGGA,090016.05,3606.89642675,N,12927.36564668,E,1,05,2.87,160.00,M,-21.3213,M,,*76
$GPGGA,090016.10,3606.89642675,N,12927.36564668,E,1,05,2.87,160.00,M,-21.3213,M,,*72
$GPGGA,090016.15,3606.89642675,N,12927.36564668,E,1,05,2.87,160.00,M,-21.3213,M,,*77
$GPGGA,090016.20,3606.89642675,N,12927.36564668,E,1,05,2.87,160.00,M,-21.3213,M,,*71
$GPGGA,090016.25,3606.89642675,N,12927.36564668,E,1,05,2.87,160.00,M,-21.3213,M,,*74
$GPGGA,090016.30,3606.89642675,N,12927.36564668,E,1,05,2.87,160.00,M,-21.3213,M,,*70
$GPGGA,090016.35,3606.89642675,N,12927.36564668,E,1,05,2.87,160.00,M,-21.3213,M,,*75
$GPGGA,090016.40,3606.89642675,N,12927.36564668,E,1,05,2.87,160.00,M,-21.3213,M,,*77
$GPGGA,090016.45,3606.89642675,N,12927.36564668,E,1,05,2.87,160.00,M,-21.3213,M,,*72
$GPGGA,090016.50,3606.89642675,N,12927.36564668,E,1,05,2.87,160.00,M,-21.3213,M,,*76
$GPGGA,090016.55,3606.89642675,N,12927.36564668,E,1,05,2.87,160.00,M,-21.3213,M,,*73
$GPGGA,090016.60,3606.89642675,N,12927.36564668,E,1,05,2.87,160.00,M,-21.3213,M,,*75
$GPGGA,090016.65,3606.89642675,N,12927.36564668,E,1,05,2.87,160.00,M,-21.3213,M,,*70
$GPGGA,090016.70,3606.89642675,N,12927.36564668,E,1,05,2.87,160.00,M,-21.3213,M,,*74
$GPGGA,090016.75,3606.89642675,N,12927.36564668,E,1,05,2.87,160.00,M,-21.3213,M,,*71
$GPGGA,090016.80,3606.89642675,N,12927.36564668,E,1,05,2.87,160.00,M,-21.3213,M,,*7B
$GPGGA,090016.85,3606.89642675,N,12927.36564668,E,1,05,2.87,160.00,M,-21.3213,M,,*7E
$GPGGA,090016.90,3606.89642675,N,12927.36564668,E,1,05,2.87,160.00,M,-21.3213,M,,*7A
$GPGGA,090016.95,3606.89642675,N,12927.36564668,E,1,05,2.87,160.00,M,-21.3213,M,,*7F
$GPGGA,090017.00,3606.89642675,N,12927.36564668,E,1,05,2.87,160.00,M,-21.3213,M,,*72
$GPGGA,090017.05,3606.89642675,N,12927.36564668,E,1,05,2.87,160.00,M,-21.3213,M,,*77
$GPGGA,090017.10,3606.89642675,N,12927.36564668,E,1,05,2.87,160.00,M,-21.3213,M,,*73
$GPGGA,090017.15,3606.89642675,N,12927.36564668,E,1,05,2.87,160.00,M,-21.3213,M,,*76
$GPGGA,090017.20,3606.89642675,N,12927.36564668,E,1,05,2.87,160.00,M,-21.3213,M,,*70
$GPGGA,090017.25,3606.89642675,N,12927.36564668,E,1,05,2.87,160.00,M,-21.3213,M,,*75
$GPGGA,090017.30,3606.89642675,N,12927.36564668,E,1,05,2.87,160.00,M,-21.3213,M,,*71
$GPGGA,090017.35,3606.89642675,N,12927.36564668,E,1,05,2.87,160.00,M,-21.3213,M,,*74
$GPGGA,090017.40,3606.89642675,N,12927.36564668,E,1,05,2.87,160.00,M,-21.3213,M,,*76
$GPGGA,090017.45,3606.89642675,N,12927.36564668,E,1,05,2.87,160.00,M,-21.3213,M,,*73
$GPGGA,090017.50,3606.89642675,N,12927.36564668,E,1,05,2.87,160.00,M,-21.3213,M,,*77
$GPGGA,090017.55,3606.89642675,N,12927.36564668,E,1,05,2.87,160.00,M,-21.3213,M,,*72
$GPGGA,090017.60,3606.89642675,N,12927.36564668,E,1,05,2.87,160.00,M,-21.3213,M,,*74
$GPGGA,090017.65,3606.89642675,N,12927.36564668,E,1,05,2.87,160.00,M,-21.3213,M,,*71
$GPGGA,090017.70,3606.89642675,N,12927.36564668,E,1,05,2.87,160.00,M,-21.3213,M,,*75
$GPGGA,090017.75,3606.89642675,N,12927.36564668,E,1,05,2.87,160.00,M,-21.3213,M,,*70
$GPGGA,090017.80,3606.89642675,N,12927.36564668,E,1,05,2.87,160.00,M,-21.3213,M,,*7A
$GPGGA,090017.85,3606.89642675,N,12927.36564668,E,1,05,2.87,160.00,M,-21.3213,M,,*7F
$GPGGA,090017.90,3606.89642675,N,12927.36564668,E,1,05,2.87,160.00,M,-21.3213,M,,*7B
$GPGGA,090017.95,3606.89642675,N,12927.36564668,E,1,05,2.87,160.00,M,-21.3213,M,,*7E
$GPGGA,090018.00,3606.89642675,N,12927.36564668,E,1,05,2.87,160.00,M,-21.3213,M,,*7D
$GPGGA,090018.05,3606.89642675,N,12927.36564668,E,1,05,2.87,160.00,M,-21.3213,M,,*78
$GPGGA,090018.10,3606.89642675,N,12927.36564668,E,1,05,2.87,160.00,M,-21.3213,M,,*7C
$GPGGA,090018.15,3606.89642675,N,12927.36564668,E,1,05,2.87,160.00,M,-21.3213,M,,*79
$GPGGA,090018.20,3606.89642675,N,12927.36564668,E,1,05,2.87,160.00,M,-21.3213,M,,*7F
$GPGGA,090018.25,3606.89642675,N,12927.36564668,E,1,05,2.87,160.00,M,-21.3213,M,,*7A
$GPGGA,090018.30,3606.89642675,N,12927.36564668,E,1,05,2.87,160.00,M,-21.3213,M,,*7E
$GPGGA,090018.35,3606.89642675,N,12927.36564668,E,1,05,2.87,160.00,M,-21.3213,M,,*7B
$GPGGA,090018.40,3606.89642675,N,12927.36564668,E,1,05,2.87,160.00,M,-21.3213,M,,*79
$GPGGA,090018.45,3606.89642675,N,12927.36564668,E,1,05,2.87,160.00,M,-21.3213,M,,*7C
$GPGGA,090018.50,3606.89642675,N,12927.36564668,E,1,05,2.87,160.00,M,-21.3213,M,,*78
$GPGGA,090018.55,3606.89642675,N,12927.36564668,E,1,05,2.87,160.00,M,-21.3213,M,,*7D
$GPGGA,090018.60,3606.89642675,N,12927.36564668,E,1,05,2.87,160.00,M,-21.3213,M,,*7B
$GPGGA,090018.65,3606.89642675,N,12927.36564668,E,1,05,2.87,160.00,M,-21.3213,M,,*7E
$GPGGA,090018.70,3606.89642675,N,12927.36564668,E,1,05,2.87,160.00,M,-21.3213,M,,*7A
$GPGGA,090018.75,3606.89642675,N,12927.36564668,E,1,05,2.87,160.00,M,-21.3213,M,,*7F
$GPGGA,090018.80,3606.89642675,N,12927.36564668,E,1,05,2.87,160.00,M,-21.3213,M,,*75
$GPGGA,090018.85,3606.89642675,N,12927.36564668,E,1,05,2.87,160.00,M,-21.3213,M,,*70
$GPGGA,090018.90,3606.89642675,N,12927.36564668,E,1,05,2.87,160.00,M,-21.3213,M,,*74
$GPGGA,090018.95,3606.89642675,N,12927.36564668,E,1,05,2.87,160.00,M,-21.3213,M,,*71
$GPGGA,090019.00,3606.89642675,N,12927.36564668,E,1,05,2.87,160.00,M,-21.3213,M,,*7C
$GPGGA,090019.05,3606.89642675,N,12927.36564668,E,1,05,2.87,160.00,M,-21.3213,M,,*79
$GPGGA,090019.10,3606.89642675,N,12927.36564668,E,1,05,2.87,160.00,M,-21.3213,M,,*7D
$GPGGA,090019.15,3606.89642675,N,12927.36564668,E,1,05,2.87,160.00,M,-21.3213,M,,*78
$GPGGA,090019.20,3606.89642675,N,12927.36564668,E,1,05,2.87,160.00,M,-21.3213,M,,*7E
$GPGGA,090019.25,3606.89642675,N,12927.36564668,E,1,05,2.87,160.00,M,-21.3213,M,,*7B
$GPGGA,090019.30,3606.89642675,N,12927.36564668,E,1,05,2.87,160.00,M,-21.3213,M,,*7F
$GPGGA,090019.35,3606.89642675,N,12927.36564668,E,1,05,2.87,160.00,M,-21.3213,M,,*7A
$GPGGA,090019.40,3606.89642675,N,12927.36564668,E,1,05,2.87,160.00,M,-21.3213,M,,*78
$GPGGA,090019.45,3606.89642675,N,12927.36564668,E,1,05,2.87,160.00,M,-21.3213,M,,*7D
$GPGGA,090019.50,3606.89642675,N,12927.36564668,E,1,05,2.87,160.00,M,-21.3213,M,,*79
$GPGGA,090019.55,3606.89642675,N,12927.36564668,E,1,05,2.87,160.00,M,-21.3213,M,,*7C
$GPGGA,090019.60,3606.89642675,N,12927.36564668,E,1,05,2.87,160.00,M,-21.3213,M,,*7A
$GPGGA,090019.65,3606.89642675,N,12927.36564668,E,1,05,2.87,160.00,M,-21.3213,M,,*7F
$GPGGA,090019.70,3606.89642675,N,12927.36564668,E,1,05,2.87,160.00,M,-21.3213,M,,*7B
$GPGGA,090019.75,3606.89642675,N,12927.36564668,E,1,05,2.87,160.00,M,-21.3213,M,,*7E
$GPGGA,090019.80,3606.89642675,N,12927.36564668,E,1,05,2.87,160.00,M,-21.3213,M,,*74
$GPGGA,090019.85,3606.89642675,N,12927.36564668,E,1,05,2.87,160.00,M,-21.3213,M,,*71
$GPGGA,090019.90,3606.89642675,N,12927.36564668,E,1,05,2.87,160.00,M,-21.3213,M,,*75
$GPGGA,090019.95,3606.89642675,N,12927.36564668,E,1,05,2.87,160.00,M,-21.3213,M,,*70
$GPGGA,090020.00,3606.89642675,N,12927.36564668,E,1,05,2.87,160.00,M,-21.3213,M,,*76
$GPGGA,090020.05,3606.89642675,N,12927.36564668,E,1,05,2.87,160.00,M,-21.3213,M,,*73
$GPGGA,090020.10,3606.89642675,N,12927.36564668,E,1,05,2.87,160.00,M,-21.3213,M,,*77
$GPGGA,090020.15,3606.89642675,N,12927.36564668,E,1,05,2.87,160.00,M,-21.3213,M,,*72
$GPGGA,090020.20,3606.89642675,N,12927.36564668,E,1,05,2.87,160.00,M,-21.3213,M,,*74
$GPGGA,090020.25,3606.89642675,N,12927.36564668,E,1,05,2.87,160.00,M,-21.3213,M,,*71
$GPGGA,090020.30,3606.89642675,N,12927.36564668,E,1,05,2.87,160.00,M,-21.3213,M,,*75
$GPGGA,090020.35,3606.89642675,N,12927.36564668,E,1,05,2.87,160.00,M,-21.3213,M,,*70
$GPGGA,090020.40,3606.89642675,N,12927.36564668,E,1,05,2.87,160.00,M,-21.3213,M,,*72
$GPGGA,090020.45,3606.89642675,N,12927.36564668,E,1,05,2.87,160.00,M,-21.3213,M,,*77
$GPGGA,090020.50,3606.89642675,N,12927.36564668,E,1,05,2.87,160.00,M,-21.3213,M,,*73
$GPGGA,090020.55,3606.89642675,N,12927.36564668,E,1,05,2.87,160.00,M,-21.3213,M,,*76
$GPGGA,090020.60,3606.89642675,N,12927.36564668,E,1,05,2.87,160.00,M,-21.3213,M,,*70
$GPGGA,090020.65,3606.89642675,N,12927.36564668,E,1,05,2.87,160.00,M,-21.3213,M,,*75
$GPGGA,090020.70,3606.89642675,N,12927.36564668,E,1,05,2.87,160.00,M,-21.3213,M,,*71
$GPGGA,090020.75,3606.89642675,N,12927.36564668,E,1,05,2.87,160.00,M,-21.3213,M,,*74
$GPGGA,090020.80,3606.89642675,N,12927.36564668,E,1,05,2.87,160.00,M,-21.3213,M,,*7E
$GPGGA,090020.85,3606.89642675,N,12927.36564668,E,1,05,2.87,160.00,M,-21.3213,M,,*7B
$GPGGA,090020.90,3606.89642675,N,12927.36564668,E,1,05,2.87,160.00,M,-21.3213,M,,*7F
$GPGGA,090020.95,3606.89642675,N,12927.36564668,E,1,05,2.87,160.00,M,-21.3213,M,,*7A
$GPGGA,090021.00,3606.89642675,N,12927.36564668,E,1,05,2.87,160.00,M,-21.3213,M,,*77
$GPGGA,090021.05,3606.89642675,N,12927.36564668,E,1,05,2.87,160.00,M,-21.3213,M,,*72
$GPGGA,090021.10,3606.89642675,N,12927.36564668,E,1,05,2.87,160.00,M,-21.3213,M,,*76
$GPGGA,090021.15,3606.89642675,N,12927.36564668,E,1,05,2.87,160.00,M,-21.3213,M,,*73
$GPGGA,090021.20,3606.89642675,N,12927.36564668,E,1,05,2.87,160.00,M,-21.3213,M,,*75
$GPGGA,090021.25,3606.89642675,N,12927.36564668,E,1,05,2.87,160.00,M,-21.3213,M,,*70
$GPGGA,090021.30,3606.89642675,N,12927.36564668,E,1,05,2.87,160.00,M,-21.3213,M,,*74
$GPGGA,090021.35,3606.89642675,N,12927.36564668,E,1,05,2.87,160.00,M,-21.3213,M,,*71
$GPGGA,090021.40,3606.89642675,N,12927.36564668,E,1,05,2.87,160.00,M,-21.3213,M,,*73
$GPGGA,090021.45,3606.89642675,N,12927.36564668,E,1,05,2.87,160.00,M,-21.3213,M,,*76
$GPGGA,090021.50,3606.89642675,N,12927.36564668,E,1,05,2.87,160.00,M,-21.3213,M,,*72
$GPGGA,090021.55,3606.89642675,N,12927.36564668,E,1,05,2.87,160.00,M,-21.3213,M,,*77
$GPGGA,090021.60,3606.89642675,N,12927.36564668,E,1,05,2.87,160.00,M,-21.3213,M,,*71
$GPGGA,090021.65,3606.89642675,N,12927.36564668,E,1,05,2.87,160.00,M,-21.3213,M,,*74
$GPGGA,090021.70,3606.89642675,N,12927.36564668,E,1,05,2.87,160.00,M,-21.3213,M,,*70
$GPGGA,090021.75,3606.89642675,N,12927.36564668,E,1,05,2.87,160.00,M,-21.3213,M,,*75
$GPGGA,090021.80,3606.89642675,N,12927.36564668,E,1,05,2.87,160.00,M,-21.3213,M,,*7F
$GPGGA,090021.85,3606.89642675,N,12927.36564668,E,1,05,2.87,160.00,M,-21.3213,M,,*7A
$GPGGA,090021.90,3606.89642675,N,12927.36564668,E,1,05,2.87,160.00,M,-21.3213,M,,*7E
$GPGGA,090021.95,3606.89642675,N,12927.36564668,E,1,05,2.87,160.00,M,-21.3213,M,,*7B
$GPGGA,090022.00,3606.89642675,N,12927.36564668,E,1,05,2.87,160.00,M,-21.3213,M,,*74
$GPGGA,090022.05,3606.89642675,N,12927.36564668,E,1,05,2.87,160.00,M,-21.3213,M,,*71
$GPGGA,090022.10,3606.89642675,N,12927.36564668,E,1,05,2.87,160.00,M,-21.3213,M,,*75
$GPGGA,090022.15,3606.89642675,N,12927.36564668,E,1,05,2.87,160.00,M,-21.3213,M,,*70
$GPGGA,090022.20,3606.89642675,N,12927.36564668,E,1,05,2.87,160.00,M,-21.3213,M,,*76
$GPGGA,090022.25,3606.89642675,N,12927.36564668,E,1,05,2.87,160.00,M,-21.3213,M,,*73
$GPGGA,090022.30,3606.89642675,N,12927.36564668,E,1,05,2.87,160.00,M,-21.3213,M,,*77
$GPGGA,090022.35,3606.89642675,N,12927.36564668,E,1,05,2.87,160.00,M,-21.3213,M,,*72
$GPGGA,090022.40,3606.89642675,N,12927.36564668,E,1,05,2.87,160.00,M,-21.3213,M,,*70
$GPGGA,090022.45,3606.89642675,N,12927.36564668,E,1,05,2.87,160.00,M,-21.3213,M,,*75
$GPGGA,090022.50,3606.89642675,N,12927.36564668,E,1,05,2.87,160.00,M,-21.3213,M,,*71
$GPGGA,090022.55,3606.89642675,N,12927.36564668,E,1,05,2.87,160.00,M,-21.3213,M,,*74
$GPGGA,090022.60,3606.89642675,N,12927.36564668,E,1,05,2.87,160.00,M,-21.3213,M,,*72
$GPGGA,090022.65,3606.89642675,N,12927.36564668,E,1,05,2.87,160.00,M,-21.3213,M,,*77
$GPGGA,090022.70,3606.89642675,N,12927.36564668,E,1,05,2.87,160.00,M,-21.3213,M,,*73
$GPGGA,090022.75,3606.89642675,N,12927.36564668,E,1,05,2.87,160.00,M,-21.3213,M,,*76
$GPGGA,090022.80,3606.89642675,N,12927.36564668,E,1,05,2.87,160.00,M,-21.3213,M,,*7C
$GPGGA,090022.85,3606.89642675,N,12927.36564668,E,1,05,2.87,160.00,M,-21.3213,M,,*79
$GPGGA,090022.90,3606.89642675,N,12927.36564668,E,1,05,2.87,160.00,M,-21.3213,M,,*7D
$GPGGA,090022.95,3606.89642675,N,12927.36564668,E,1,05,2.87,160.00,M,-21.3213,M,,*78
$GPGGA,090023.00,3606.89642675,N,12927.36564668,E,1,05,2.87,160.00,M,-21.3213,M,,*75
$GPGGA,090023.05,3606.89642675,N,12927.36564668,E,1,05,2.87,160.00,M,-21.3213,M,,*70
$GPGGA,090023.10,3606.89642675,N,12927.36564668,E,1,05,2.87,160.00,M,-21.3213,M,,*74
$GPGGA,090023.15,3606.89642675,N,12927.36564668,E,1,05,2.87,160.00,M,-21.3213,M,,*71
$GPGGA,090023.20,3606.89642675,N,12927.36564668,E,1,05,2.87,160.00,M,-21.3213,M,,*77
$GPGGA,090023.25,3606.89642675,N,12927.36564668,E,1,05,2.87,160.00,M,-21.3213,M,,*72
$GPGGA,090023.30,3606.89642675,N,12927.36564668,E,1,05,2.87,160.00,M,-21.3213,M,,*76
$GPGGA,090023.35,3606.89642675,N,12927.36564668,E,1,05,2.87,160.00,M,-21.3213,M,,*73
$GPGGA,090023.40,3606.89642675,N,12927.36564668,E,1,05,2.87,160.00,M,-21.3213,M,,*71
$GPGGA,090023.45,3606.89642675,N,12927.36564668,E,1,05,2.87,160.00,M,-21.3213,M,,*74
$GPGGA,090023.50,3606.89642675,N,12927.36564668,E,1,05,2.87,160.00,M,-21.3213,M,,*70
$GPGGA,090023.55,3606.89642675,N,12927.36564668,E,1,05,2.87,160.00,M,-21.3213,M,,*75
$GPGGA,090023.60,3606.89642675,N,12927.36564668,E,1,05,2.87,160.00,M,-21.3213,M,,*73
$GPGGA,090023.65,3606.89642675,N,12927.36564668,E,1,05,2.87,160.00,M,-21.3213,M,,*76
$GPGGA,090023.70,3606.89642675,N,12927.36564668,E,1,05,2.87,160.00,M,-21.3213,M,,*72
$GPGGA,090023.75,3606.89642675,N,12927.36564668,E,1,05,2.87,160.00,M,-21.3213,M,,*77
$GPGGA,090023.80,3606.89642675,N,12927.36564668,E,1,05,2.87,160.00,M,-21.3213,M,,*7D
$GPGGA,090023.85,3606.89642675,N,12927.36564668,E,1,05,2.87,160.00,M,-21.3213,M,,*78
$GPGGA,090023.90,3606.89642675,N,12927.36564668,E,1,05,2.87,160.00,M,-21.3213,M,,*7C
$GPGGA,090023.95,3606.89642675,N,12927.36564668,E,1,05,2.87,160.00,M,-21.3213,M,,*79
$GPGGA,090024.00,3606.89642675,N,12927.36564668,E,1,05,2.87,160.00,M,-21.3213,M,,*72
$GPGGA,090024.05,3606.89642675,N,12927.36564668,E,1,05,2.87,160.00,M,-21.3213,M,,*77
$GPGGA,090024.10,3606.89642675,N,12927.36564668,E,1,05,2.87,160.00,M,-21.3213,M,,*73
$GPGGA,090024.15,3606.89642675,N,12927.36564668,E,1,05,2.87,160.00,M,-21.3213,M,,*76
$GPGGA,090024.20,3606.89642675,N,12927.36564668,E,1,05,2.87,160.00,M,-21.3213,M,,*70
$GPGGA,090024.25,3606.89642675,N,12927.36564668,E,1,05,2.87,160.00,M,-21.3213,M,,*75
$GPGGA,090024.30,3606.89642675,N,12927.36564668,E,1,05,2.87,160.00,M,-21.3213,M,,*71
$GPGGA,090024.35,3606.89642675,N,12927.36564668,E,1,05,2.87,160.00,M,-21.3213,M,,*74
$GPGGA,090024.40,3606.89642675,N,12927.36564668,E,1,05,2.87,160.00,M,-21.3213,M,,*76
$GPGGA,090024.45,3606.89642675,N,12927.36564668,E,1,05,2.87,160.00,M,-21.3213,M,,*73
$GPGGA,090024.50,3606.89642675,N,12927.36564668,E,1,05,2.87,160.00,M,-21.3213,M,,*77
$GPGGA,090024.55,3606.89642675,N,12927.36564668,E,1,05,2.87,160.00,M,-21.3213,M,,*72
$GPGGA,090024.60,3606.89642675,N,12927.36564668,E,1,05,2.87,160.00,M,-21.3213,M,,*74
$GPGGA,090024.65,3606.89642675,N,12927.36564668,E,1,05,2.87,160.00,M,-21.3213,M,,*71
$GPGGA,090024.70,3606.89642675,N,12927.36564668,E,1,05,2.87,160.00,M,-21.3213,M,,*75
$GPGGA,090024.75,3606.89642675,N,12927.36564668,E,1,05,2.87,160.00,M,-21.3213,M,,*70
$GPGGA,090024.80,3606.89642675,N,12927.36564668,E,1,05,2.87,160.00,M,-21.3213,M,,*7A
$GPGGA,090024.85,3606.89642675,N,12927.36564668,E,1,05,2.87,160.00,M,-21.3213,M,,*7F
$GPGGA,090024.90,3606.89642675,N,12927.36564668,E,1,05,2.87,160.00,M,-21.3213,M,,*7B
$GPGGA,090024.95,3606.89642675,N,12927.36564668,E,1,05,2.87,160.00,M,-21.3213,M,,*7E
$GPGGA,090025.00,3606.89642675,N,12927.36564668,E,1,05,2.87,160.00,M,-21.3213,M,,*73
$GPGGA,090025.05,3606.89642675,N,12927.36564668,E,1,05,2.87,160.00,M,-21.3213,M,,*76
$GPGGA,090025.10,3606.89642675,N,12927.36564668,E,1,05,2.87,160.00,M,-21.3213,M,,*72
$GPGGA,090025.15,3606.89642675,N,12927.36564668,E,1,05,2.87,160.00,M,-21.3213,M,,*77
$GPGGA,090025.20,3606.89642675,N,12927.36564668,E,1,05,2.87,160.00,M,-21.3213,M,,*71
$GPGGA,090025.25,3606.89642675,N,12927.36564668,E,1,05,2.87,160.00,M,-21.3213,M,,*74
$GPGGA,090025.30,3606.89642675,N,12927.36564668,E,1,05,2.87,160.00,M,-21.3213,M,,*70
$GPGGA,090025.35,3606.89642675,N,12927.36564668,E,1,05,2.87,160.00,M,-21.3213,M,,*75
$GPGGA,090025.40,3606.89642675,N,12927.36564668,E,1,05,2.87,160.00,M,-21.3213,M,,*77
$GPGGA,090025.45,3606.89642675,N,12927.36564668,E,1,05,2.87,160.00,M,-21.3213,M,,*72
$GPGGA,090025.50,3606.89642675,N,12927.36564668,E,1,05,2.87,160.00,M,-21.3213,M,,*76
$GPGGA,090025.55,3606.89642675,N,12927.36564668,E,1,05,2.87,160.00,M,-21.3213,M,,*73
$GPGGA,090025.60,3606.89642675,N,12927.36564668,E,1,05,2.87,160.00,M,-21.3213,M,,*75
$GPGGA,090025.65,3606.89642675,N,12927.36564668,E,1,05,2.87,160.00,M,-21.3213,M,,*70
$GPGGA,090025.70,3606.89642675,N,12927.36564668,E,1,05,2.87,160.00,M,-21.3213,M,,*74
$GPGGA,090025.75,3606.89642675,N,12927.36564668,E,1,05,2.87,160.00,M,-21.3213,M,,*71
$GPGGA,090025.80,3606.89642675,N,12927.36564668,E,1,05,2.87,160.00,M,-21.3213,M,,*7B
$GPGGA,090025.85,3606.89642675,N,12927.36564668,E,1,05,2.87,160.00,M,-21.3213,M,,*7E
$GPGGA,090025.90,3606.89642675,N,12927.36564668,E,1,05,2.87,160.00,M,-21.3213,M,,*7A
$GPGGA,090025.95,3606.89642675,N,12927.36564668,E,1,05,2.87,160.00,M,-21.3213,M,,*7F
$GPGGA,090026.00,3606.89642675,N,12927.36564668,E,1,05,2.87,160.00,M,-21.3213,M,,*70
$GPGGA,090026.05,3606.89642675,N,12927.36564668,E,1,05,2.87,160.00,M,-21.3213,M,,*75
$GPGGA,090026.10,3606.89642675,N,12927.36564668,E,1,05,2.87,160.00,M,-21.3213,M,,*71
$GPGGA,090026.15,3606.89642675,N,12927.36564668,E,1,05,2.87,160.00,M,-21.3213,M,,*74
$GPGGA,090026.20,3606.89642675,N,12927.36564668,E,1,05,2.87,160.00,M,-21.3213,M,,*72
$GPGGA,090026.25,3606.89642675,N,12927.36564668,E,1,05,2.87,160.00,M,-21.3213,M,,*77
$GPGGA,090026.30,3606.89642675,N,12927.36564668,E,1,05,2.87,160.00,M,-21.3213,M,,*73
$GPGGA,090026.35,3606.89642675,N,12927.36564668,E,1,05,2.87,160.00,M,-21.3213,M,,*76
$GPGGA,090026.40,3606.89642675,N,12927.36564668,E,1,05,2.87,160.00,M,-21.3213,M,,*74
$GPGGA,090026.45,3606.89642675,N,12927.36564668,E,1,05,2.87,160.00,M,-21.3213,M,,*71
$GPGGA,090026.50,3606.89642675,N,12927.36564668,E,1,05,2.87,160.00,M,-21.3213,M,,*75
$GPGGA,090026.55,3606.89642675,N,12927.36564668,E,1,05,2.87,160.00,M,-21.3213,M,,*70
$GPGGA,090026.60,3606.89642675,N,12927.36564668,E,1,05,2.87,160.00,M,-21.3213,M,,*76
$GPGGA,090026.65,3606.89642675,N,12927.36564668,E,1,05,2.87,160.00,M,-21.3213,M,,*73
$GPGGA,090026.70,3606.89642675,N,12927.36564668,E,1,05,2.87,160.00,M,-21.3213,M,,*77
$GPGGA,090026.75,3606.89642675,N,12927.36564668,E,1,05,2.87,160.00,M,-21.3213,M,,*72
$GPGGA,090026.80,3606.89642675,N,12927.36564668,E,1,05,2.87,160.00,M,-21.3213,M,,*78
$GPGGA,090026.85,3606.89642675,N,12927.36564668,E,1,05,2.87,160.00,M,-21.3213,M,,*7D
$GPGGA,090026.90,3606.89642675,N,12927.36564668,E,1,05,2.87,160.00,M,-21.3213,M,,*79
$GPGGA,090026.95,3606.89642675,N,12927.36564668,E,1,05,2.87,160.00,M,-21.3213,M,,*7C
$GPGGA,090027.00,3606.89642675,N,12927.36564668,E,1,05,2.87,160.00,M,-21.3213,M,,*71
$GPGGA,090027.05,3606.89642675,N,12927.36564668,E,1,05,2.87,160.00,M,-21.3213,M,,*74
$GPGGA,090027.10,3606.89642675,N,12927.36564668,E,1,05,2.87,160.00,M,-21.3213,M,,*70
$GPGGA,090027.15,3606.89642675,N,12927.36564668,E,1,05,2.87,160.00,M,-21.3213,M,,*75
$GPGGA,090027.20,3606.89642675,N,12927.36564668,E,1,05,2.87,160.00,M,-21.3213,M,,*73
$GPGGA,090027.25,3606.89642675,N,12927.36564668,E,1,05,2.87,160.00,M,-21.3213,M,,*76
$GPGGA,090027.30,3606.89642675,N,12927.36564668,E,1,05,2.87,160.00,M,-21.3213,M,,*72
$GPGGA,090027.35,3606.89642675,N,12927.36564668,E,1,05,2.87,160.00,M,-21.3213,M,,*77
$GPGGA,090027.40,3606.89642675,N,12927.36564668,E,1,05,2.87,160.00,M,-21.3213,M,,*75
$GPGGA,090027.45,3606.89642675,N,12927.36564668,E,1,05,2.87,160.00,M,-21.3213,M,,*70
$GPGGA,090027.50,3606.89642675,N,12927.36564668,E,1,05,2.87,160.00,M,-21.3213,M,,*74
$GPGGA,090027.55,3606.89642675,N,12927.36564668,E,1,05,2.87,160.00,M,-21.3213,M,,*71
$GPGGA,090027.60,3606.89642675,N,12927.36564668,E,1,05,2.87,160.00,M,-21.3213,M,,*77
$GPGGA,090027.65,3606.89642675,N,12927.36564668,E,1,05,2.87,160.00,M,-21.3213,M,,*72
$GPGGA,090027.70,3606.89642675,N,12927.36564668,E,1,05,2.87,160.00,M,-21.3213,M,,*76
$GPGGA,090027.75,3606.89642675,N,12927.36564668,E,1,05,2.87,160.00,M,-21.3213,M,,*73
$GPGGA,090027.80,3606.89642675,N,12927.36564668,E,1,05,2.87,160.00,M,-21.3213,M,,*79
$GPGGA,090027.85,3606.89642675,N,12927.36564668,E,1,05,2.87,160.00,M,-21.3213,M,,*7C
$GPGGA,090027.90,3606.89642675,N,12927.36564668,E,1,05,2.87,160.00,M,-21.3213,M,,*78
$GPGGA,090027.95,3606.89642675,N,12927.36564668,E,1,05,2.87,160.00,M,-21.3213,M,,*7D
$GPGGA,090028.00,3606.89642675,N,12927.36564668,E,1,05,2.87,160.00,M,-21.3213,M,,*7E
$GPGGA,090028.05,3606.89642675,N,12927.36564668,E,1,05,2.87,160.00,M,-21.3213,M,,*7B
$GPGGA,090028.10,3606.89642675,N,12927.36564668,E,1,05,2.87,160.00,M,-21.3213,M,,*7F
$GPGGA,090028.15,3606.89642675,N,12927.36564668,E,1,05,2.87,160.00,M,-21.3213,M,,*7A
$GPGGA,090028.20,3606.89642675,N,12927.36564668,E,1,05,2.87,160.00,M,-21.3213,M,,*7C
$GPGGA,090028.25,3606.89642675,N,12927.36564668,E,1,05,2.87,160.00,M,-21.3213,M,,*79
$GPGGA,090028.30,3606.89642675,N,12927.36564668,E,1,05,2.87,160.00,M,-21.3213,M,,*7D
$GPGGA,090028.35,3606.89642675,N,12927.36564668,E,1,05,2.87,160.00,M,-21.3213,M,,*78
$GPGGA,090028.40,3606.89642675,N,12927.36564668,E,1,05,2.87,160.00,M,-21.3213,M,,*7A
$GPGGA,090028.45,3606.89642675,N,12927.36564668,E,1,05,2.87,160.00,M,-21.3213,M,,*7F
$GPGGA,090028.50,3606.89642675,N,12927.36564668,E,1,05,2.87,160.00,M,-21.3213,M,,*7B
$GPGGA,090028.55,3606.89642675,N,12927.36564668,E,1,05,2.87,160.00,M,-21.3213,M,,*7E
$GPGGA,090028.60,3606.89642675,N,12927.36564668,E,1,05,2.87,160.00,M,-21.3213,M,,*78
$GPGGA,090028.65,3606.89642675,N,12927.36564668,E,1,05,2.87,160.00,M,-21.3213,M,,*7D
$GPGGA,090028.70,3606.89642675,N,12927.36564668,E,1,05,2.87,160.00,M,-21.3213,M,,*79
$GPGGA,090028.75,3606.89642675,N,12927.36564668,E,1,05,2.87,160.00,M,-21.3213,M,,*7C
$GPGGA,090028.80,3606.89642675,N,12927.36564668,E,1,05,2.87,160.00,M,-21.3213,M,,*76
$GPGGA,090028.85,3606.89642675,N,12927.36564668,E,1,05,2.87,160.00,M,-21.3213,M,,*73
$GPGGA,090028.90,3606.89642675,N,12927.36564668,E,1,05,2.87,160.00,M,-21.3213,M,,*77
$GPGGA,090028.95,3606.89642675,N,12927.36564668,E,1,05,2.87,160.00,M,-21.3213,M,,*72
$GPGGA,090029.00,3606.89642675,N,12927.36564668,E,1,05,2.87,160.00,M,-21.3213,M,,*7F
$GPGGA,090029.05,3606.89642675,N,12927.36564668,E,1,05,2.87,160.00,M,-21.3213,M,,*7A
$GPGGA,090029.10,3606.89642675,N,12927.36564668,E,1,05,2.87,160.00,M,-21.3213,M,,*7E
$GPGGA,090029.15,3606.89642675,N,12927.36564668,E,1,05,2.87,160.00,M,-21.3213,M,,*7B
$GPGGA,090029.20,3606.89642675,N,12927.36564668,E,1,05,2.87,160.00,M,-21.3213,M,,*7D
$GPGGA,090029.25,3606.89642675,N,12927.36564668,E,1,05,2.87,160.00,M,-21.3213,M,,*78
$GPGGA,090029.30,3606.89642675,N,12927.36564668,E,1,05,2.87,160.00,M,-21.3213,M,,*7C
$GPGGA,090029.35,3606.89642675,N,12927.36564668,E,1,05,2.87,160.00,M,-21.3213,M,,*79
$GPGGA,090029.40,3606.89642675,N,12927.36564668,E,1,05,2.87,160.00,M,-21.3213,M,,*7B
$GPGGA,090029.45,3606.89642675,N,12927.36564668,E,1,05,2.87,160.00,M,-21.3213,M,,*7E
$GPGGA,090029.50,3606.89642675,N,12927.36564668,E,1,05,2.87,160.00,M,-21.3213,M,,*7A
$GPGGA,090029.55,3606.89642675,N,12927.36564668,E,1,05,2.87,160.00,M,-21.3213,M,,*7F
$GPGGA,090029.60,3606.89642675,N,12927.36564668,E,1,05,2.87,160.00,M,-21.3213,M,,*79
$GPGGA,090029.65,3606.89642675,N,12927.36564668,E,1,05,2.87,160.00,M,-21.3213,M,,*7C
$GPGGA,090029.70,3606.89642675,N,12927.36564668,E,1,05,2.87,160.00,M,-21.3213,M,,*78
$GPGGA,090029.75,3606.89642675,N,12927.36564668,E,1,05,2.87,160.00,M,-21.3213,M,,*7D
$GPGGA,090029.80,3606.89642675,N,12927.36564668,E,1,05,2.87,160.00,M,-21.3213,M,,*77
$GPGGA,090029.85,3606.89642675,N,12927.36564668,E,1,05,2.87,160.00,M,-21.3213,M,,*72
$GPGGA,090029.90,3606.89642675,N,12927.36564668,E,1,05,2.87,160.00,M,-21.3213,M,,*76
$GPGGA,090029.95,3606.89642675,N,12927.36564668,E,1,05,2.87,160.00,M,-21.3213,M,,*73
$GPGGA,090030.00,3606.89642675,N,12927.36564668,E,1,05,2.87,160.00,M,-21.3213,M,,*77
$GPGGA,090030.05,3606.89642675,N,12927.36564668,E,1,05,2.87,160.00,M,-21.3213,M,,*72
$GPGGA,090030.10,3606.89642675,N,12927.36564668,E,1,05,2.87,160.00,M,-21.3213,M,,*76
$GPGGA,090030.15,3606.89642675,N,12927.36564668,E,1,05,2.87,160.00,M,-21.3213,M,,*73
$GPGGA,090030.20,3606.89642675,N,12927.36564668,E,1,05,2.87,160.00,M,-21.3213,M,,*75
$GPGGA,090030.25,3606.89642675,N,12927.36564668,E,1,05,2.87,160.00,M,-21.3213,M,,*70
$GPGGA,090030.30,3606.89642675,N,12927.36564668,E,1,05,2.87,160.00,M,-21.3213,M,,*74
$GPGGA,090030.35,3606.89642675,N,12927.36564668,E,1,05,2.87,160.00,M,-21.3213,M,,*71
$GPGGA,090030.40,3606.89642675,N,12927.36564668,E,1,05,2.87,160.00,M,-21.3213,M,,*73
$GPGGA,090030.45,3606.89642675,N,12927.36564668,E,1,05,2.87,160.00,M,-21.3213,M,,*76
$GPGGA,090030.50,3606.89642675,N,12927.36564668,E,1,05,2.87,160.00,M,-21.3213,M,,*72
$GPGGA,090030.55,3606.89642675,N,12927.36564668,E,1,05,2.87,160.00,M,-21.3213,M,,*77
$GPGGA,090030.60,3606.89642675,N,12927.36564668,E,1,05,2.87,160.00,M,-21.3213,M,,*71
$GPGGA,090030.65,3606.89642675,N,12927.36564668,E,1,05,2.87,160.00,M,-21.3213,M,,*74
$GPGGA,090030.70,3606.89642675,N,12927.36564668,E,1,05,2.87,160.00,M,-21.3213,M,,*70
$GPGGA,090030.75,3606.89642675,N,12927.36564668,E,1,05,2.87,160.00,M,-21.3213,M,,*75
$GPGGA,090030.80,3606.89642675,N,12927.36564668,E,1,05,2.87,160.00,M,-21.3213,M,,*7F
$GPGGA,090030.85,3606.89642675,N,12927.36564668,E,1,05,2.87,160.00,M,-21.3213,M,,*7A
$GPGGA,090030.90,3606.89642675,N,12927.36564668,E,1,05,2.87,160.00,M,-21.3213,M,,*7E
$GPGGA,090030.95,3606.89642675,N,12927.36564668,E,1,05,2.87,160.00,M,-21.3213,M,,*7B
$GPGGA,090031.00,3606.89642675,N,12927.36564668,E,1,05,2.87,160.00,M,-21.3213,M,,*76
$GPGGA,090031.05,3606.89642675,N,12927.36564668,E,1,05,2.87,160.00,M,-21.3213,M,,*73
$GPGGA,090031.10,3606.89642675,N,12927.36564668,E,1,05,2.87,160.00,M,-21.3213,M,,*77
$GPGGA,090031.15,3606.89642675,N,12927.36564668,E,1,05,2.87,160.00,M,-21.3213,M,,*72
$GPGGA,090031.20,3606.89642675,N,12927.36564668,E,1,05,2.87,160.00,M,-21.3213,M,,*74
$GPGGA,090031.25,3606.89642675,N,12927.36564668,E,1,05,2.87,160.00,M,-21.3213,M,,*71
$GPGGA,090031.30,3606.89642675,N,12927.36564668,E,1,05,2.87,160.00,M,-21.3213,M,,*75
$GPGGA,090031.35,3606.89642675,N,12927.36564668,E,1,05,2.87,160.00,M,-21.3213,M,,*70
$GPGGA,090031.40,3606.89642675,N,12927.36564668,E,1,05,2.87,160.00,M,-21.3213,M,,*72
$GPGGA,090031.45,3606.89642675,N,12927.36564668,E,1,05,2.87,160.00,M,-21.3213,M,,*77
$GPGGA,090031.50,3606.89642675,N,12927.36564668,E,1,05,2.87,160.00,M,-21.3213,M,,*73
$GPGGA,090031.55,3606.89642675,N,12927.36564668,E,1,05,2.87,160.00,M,-21.3213,M,,*76
$GPGGA,090031.60,3606.89642675,N,12927.36564668,E,1,05,2.87,160.00,M,-21.3213,M,,*70
$GPGGA,090031.65,3606.89642675,N,12927.36564668,E,1,05,2.87,160.00,M,-21.3213,M,,*75
$GPGGA,090031.70,3606.89642675,N,12927.36564668,E,1,05,2.87,160.00,M,-21.3213,M,,*71
$GPGGA,090031.75,3606.89642675,N,12927.36564668,E,1,05,2.87,160.00,M,-21.3213,M,,*74
$GPGGA,090031.80,3606.89642675,N,12927.36564668,E,1,05,2.87,160.00,M,-21.3213,M,,*7E
$GPGGA,090031.85,3606.89642675,N,12927.36564668,E,1,05,2.87,160.00,M,-21.3213,M,,*7B
$GPGGA,090031.90,3606.89642675,N,12927.36564668,E,1,05,2.87,160.00,M,-21.3213,M,,*7F
$GPGGA,090031.95,3606.89642675,N,12927.36564668,E,1,05,2.87,160.00,M,-21.3213,M,,*7A
$GPGGA,090032.00,3606.89642675,N,12927.36564668,E,1,05,2.87,160.00,M,-21.3213,M,,*75
$GPGGA,090032.05,3606.89642675,N,12927.36564668,E,1,05,2.87,160.00,M,-21.3213,M,,*70
$GPGGA,090032.10,3606.89642675,N,12927.36564668,E,1,05,2.87,160.00,M,-21.3213,M,,*74
$GPGGA,090032.15,3606.89642675,N,12927.36564668,E,1,05,2.87,160.00,M,-21.3213,M,,*71
$GPGGA,090032.20,3606.89642675,N,12927.36564668,E,1,05,2.87,160.00,M,-21.3213,M,,*77
$GPGGA,090032.25,3606.89642675,N,12927.36564668,E,1,05,2.87,160.00,M,-21.3213,M,,*72
$GPGGA,090032.30,3606.89642675,N,12927.36564668,E,1,05,2.87,160.00,M,-21.3213,M,,*76
$GPGGA,090032.35,3606.89642675,N,12927.36564668,E,1,05,2.87,160.00,M,-21.3213,M,,*73
$GPGGA,090032.40,3606.89642675,N,12927.36564668,E,1,05,2.87,160.00,M,-21.3213,M,,*71
$GPGGA,090032.45,3606.89642675,N,12927.36564668,E,1,05,2.87,160.00,M,-21.3213,M,,*74
$GPGGA,090032.50,3606.89642675,N,12927.36564668,E,1,05,2.87,160.00,M,-21.3213,M,,*70
$GPGGA,090032.55,3606.89642675,N,12927.36564668,E,1,05,2.87,160.00,M,-21.3213,M,,*75
$GPGGA,090032.60,3606.89642675,N,12927.36564668,E,1,05,2.87,160.00,M,-21.3213,M,,*73
$GPGGA,090032.65,3606.89642675,N,12927.36564668,E,1,05,2.87,160.00,M,-21.3213,M,,*76
$GPGGA,090032.70,3606.89642675,N,12927.36564668,E,1,05,2.87,160.00,M,-21.3213,M,,*72
$GPGGA,090032.75,3606.89642675,N,12927.36564668,E,1,05,2.87,160.00,M,-21.3213,M,,*77
$GPGGA,090032.80,3606.89642675,N,12927.36564668,E,1,05,2.87,160.00,M,-21.3213,M,,*7D
$GPGGA,090032.85,3606.89642675,N,12927.36564668,E,1,05,2.87,160.00,M,-21.3213,M,,*78
$GPGGA,090032.90,3606.89642675,N,12927.36564668,E,1,05,2.87,160.00,M,-21.3213,M,,*7C
$GPGGA,090032.95,3606.89642675,N,12927.36564668,E,1,05,2.87,160.00,M,-21.3213,M,,*79
$GPGGA,090033.00,3606.89642675,N,12927.36564668,E,1,05,2.87,160.00,M,-21.3213,M,,*74
$GPGGA,090033.05,3606.89642675,N,12927.36564668,E,1,05,2.87,160.00,M,-21.3213,M,,*71
$GPGGA,090033.10,3606.89642675,N,12927.36564668,E,1,05,2.87,160.00,M,-21.3213,M,,*75
$GPGGA,090033.15,3606.89642675,N,12927.36564668,E,1,05,2.87,160.00,M,-21.3213,M,,*70
$GPGGA,090033.20,3606.89642675,N,12927.36564668,E,1,05,2.87,160.00,M,-21.3213,M,,*76
$GPGGA,090033.25,3606.89642675,N,12927.36564668,E,1,05,2.87,160.00,M,-21.3213,M,,*73
$GPGGA,090033.30,3606.89642675,N,12927.36564668,E,1,05,2.87,160.00,M,-21.3213,M,,*77
$GPGGA,090033.35,3606.89642675,N,12927.36564668,E,1,05,2.87,160.00,M,-21.3213,M,,*72
$GPGGA,090033.40,3606.89642675,N,12927.36564668,E,1,05,2.87,160.00,M,-21.3213,M,,*70
$GPGGA,090033.45,3606.89642675,N,12927.36564668,E,1,05,2.87,160.00,M,-21.3213,M,,*75
$GPGGA,090033.50,3606.89642675,N,12927.36564668,E,1,05,2.87,160.00,M,-21.3213,M,,*71
$GPGGA,090033.55,3606.89642675,N,12927.36564668,E,1,05,2.87,160.00,M,-21.3213,M,,*74
$GPGGA,090033.60,3606.89642675,N,12927.36564668,E,1,05,2.87,160.00,M,-21.3213,M,,*72
$GPGGA,090033.65,3606.89642675,N,12927.36564668,E,1,05,2.87,160.00,M,-21.3213,M,,*77
$GPGGA,090033.70,3606.89642675,N,12927.36564668,E,1,05,2.87,160.00,M,-21.3213,M,,*73
$GPGGA,090033.75,3606.89642675,N,12927.36564668,E,1,05,2.87,160.00,M,-21.3213,M,,*76
$GPGGA,090033.80,3606.89642675,N,12927.36564668,E,1,05,2.87,160.00,M,-21.3213,M,,*7C
$GPGGA,090033.85,3606.89642675,N,12927.36564668,E,1,05,2.87,160.00,M,-21.3213,M,,*79
$GPGGA,090033.90,3606.89642675,N,12927.36564668,E,1,05,2.87,160.00,M,-21.3213,M,,*7D
$GPGGA,090033.95,3606.89642675,N,12927.36564668,E,1,05,2.87,160.00,M,-21.3213,M,,*78
$GPGGA,090034.00,3606.89642675,N,12927.36564668,E,1,05,2.87,160.00,M,-21.3213,M,,*73
$GPGGA,090034.05,3606.89642675,N,12927.36564668,E,1,05,2.87,160.00,M,-21.3213,M,,*76
$GPGGA,090034.10,3606.89642675,N,12927.36564668,E,1,05,2.87,160.00,M,-21.3213,M,,*72
$GPGGA,090034.15,3606.89642675,N,12927.36564668,E,1,05,2.87,160.00,M,-21.3213,M,,*77
$GPGGA,090034.20,3606.89642675,N,12927.36564668,E,1,05,2.87,160.00,M,-21.3213,M,,*71
$GPGGA,090034.25,3606.89642675,N,12927.36564668,E,1,05,2.87,160.00,M,-21.3213,M,,*74
$GPGGA,090034.30,3606.89642675,N,12927.36564668,E,1,05,2.87,160.00,M,-21.3213,M,,*70
$GPGGA,090034.35,3606.89642675,N,12927.36564668,E,1,05,2.87,160.00,M,-21.3213,M,,*75
$GPGGA,090034.40,3606.89642675,N,12927.36564668,E,1,05,2.87,160.00,M,-21.3213,M,,*77
$GPGGA,090034.45,3606.89642675,N,12927.36564668,E,1,05,2.87,160.00,M,-21.3213,M,,*72
$GPGGA,090034.50,3606.89642675,N,12927.36564668,E,1,05,2.87,160.00,M,-21.3213,M,,*76
$GPGGA,090034.55,3606.89642675,N,12927.36564668,E,1,05,2.87,160.00,M,-21.3213,M,,*73
$GPGGA,090034.60,3606.89642675,N,12927.36564668,E,1,05,2.87,160.00,M,-21.3213,M,,*75
$GPGGA,090034.65,3606.89642675,N,12927.36564668,E,1,05,2.87,160.00,M,-21.3213,M,,*70
$GPGGA,090034.70,3606.89642675,N,12927.36564668,E,1,05,2.87,160.00,M,-21.3213,M,,*74
$GPGGA,090034.75,3606.89642675,N,12927.36564668,E,1,05,2.87,160.00,M,-21.3213,M,,*71
$GPGGA,090034.80,3606.89642675,N,12927.36564668,E,1,05,2.87,160.00,M,-21.3213,M,,*7B
